[
  {
    "club": "Al Ahly",
    "country": "Egypt",
    "city": "Cairo",
    "latitude": 30.0444,
    "longitude": 31.2357
  },
  {
    "club": "Wydad AC",
    "country": "Morocco",
    "city": "Casablanca",
    "latitude": 33.5731,
    "longitude": -7.5898
  },
  {
    "club": "Esperance Sportive de Tunis",
    "country": "Tunisia",
    "city": "Tunis",
    "latitude": 36.8065,
    "longitude": 10.1815
  },
  {
    "club": "Mamelodi Sundowns",
    "country": "South Africa",
    "city": "Pretoria",
    "latitude": -25.7479,
    "longitude": 28.2293
  },
  {
    "club": "Urawa Red Diamonds",
    "country": "Japan",
    "city": "Saitama",
    "latitude": 35.8617,
    "longitude": 139.6455
  },
  {
    "club": "Al Hilal",
    "country": "Saudi Arabia",
    "city": "Riyadh",
    "latitude": 24.7136,
    "longitude": 46.6753
  },
  {
    "club": "Ulsan HD",
    "country": "South Korea",
    "city": "Ulsan",
    "latitude": 35.5384,
    "longitude": 129.3174
  },
  {
    "club": "Al Ain",
    "country": "United Arab Emirates",
    "city": "Al Ain",
    "latitude": 24.13,
    "longitude": 55.8
  },
  {
    "club": "Monterrey",
    "country": "Mexico",
    "city": "Monterrey",
    "latitude": 25.6866,
    "longitude": -100.3161
  },
  {
    "club": "Pachuca",
    "country": "Mexico",
    "city": "Pachuca",
    "latitude": 20.117,
    "longitude": -98.7426
  },
  {
    "club": "Inter Miami CF",
    "country": "USA",
    "city": "Miami",
    "latitude": 25.7617,
    "longitude": -80.1918
  },
  {
    "club": "Los Angeles FC",
    "country": "USA",
    "city": "Los Angeles",
    "latitude": 34.0522,
    "longitude": -118.2437
  },
  {
    "club": "Seattle Sounders FC",
    "country": "USA",
    "city": "Seattle",
    "latitude": 47.6062,
    "longitude": -122.3321
  },
  {
    "club": "Boca Juniors",
    "country": "Argentina",
    "city": "Buenos Aires",
    "latitude": -34.6037,
    "longitude": -58.3816
  },
  {
    "club": "River Plate",
    "country": "Argentina",
    "city": "Buenos Aires",
    "latitude": -34.6037,
    "longitude": -58.3816
  },
  {
    "club": "Botafogo",
    "country": "Brazil",
    "city": "Rio de Janeiro",
    "latitude": -22.9068,
    "longitude": -43.1729
  },
  {
    "club": "Flamengo",
    "country": "Brazil",
    "city": "Rio de Janeiro",
    "latitude": -22.9068,
    "longitude": -43.1729
  },
  {
    "club": "Fluminense",
    "country": "Brazil",
    "city": "Rio de Janeiro",
    "latitude": -22.9068,
    "longitude": -43.1729
  },
  {
    "club": "Palmeiras",
    "country": "Brazil",
    "city": "Sao Paulo",
    "latitude": -23.5505,
    "longitude": -46.6333
  },
  {
    "club": "Auckland City",
    "country": "New Zealand",
    "city": "Auckland",
    "latitude": -36.8485,
    "longitude": 174.7633
  },
  {
    "club": "Benfica",
    "country": "Portugal",
    "city": "Lisbon",
    "latitude": 38.7223,
    "longitude": -9.1393
  },
  {
    "club": "Bayern Munich",
    "country": "Germany",
    "city": "Munich",
    "latitude": 48.1351,
    "longitude": 11.582
  },
  {
    "club": "Chelsea",
    "country": "England",
    "city": "London",
    "latitude": 51.5074,
    "longitude": -0.1278
  },
  {
    "club": "Manchester City",
    "country": "England",
    "city": "Manchester",
    "latitude": 53.4808,
    "longitude": -2.2426
  },
  {
    "club": "Inter Milan",
    "country": "Italy",
    "city": "Milan",
    "latitude": 45.4642,
    "longitude": 9.19
  },
  {
    "club": "Juventus",
    "country": "Italy",
    "city": "Turin",
    "latitude": 45.0703,
    "longitude": 7.6869
  },
  {
    "club": "Paris Saint-Germain",
    "country": "France",
    "city": "Paris",
    "latitude": 48.8566,
    "longitude": 2.3522
  },
  {
    "club": "Borussia Dortmund",
    "country": "Germany",
    "city": "Dortmund",
    "latitude": 51.5136,
    "longitude": 7.4653
  },
  {
    "club": "Atletico Madrid",
    "country": "Spain",
    "city": "Madrid",
    "latitude": 40.4168,
    "longitude": -3.7038
  },
  {
    "club": "Real Madrid",
    "country": "Spain",
    "city": "Madrid",
    "latitude": 40.4168,
    "longitude": -3.7038
  },
  {
    "club": "Red Bull Salzburg",
    "country": "Austria",
    "city": "Salzburg",
    "latitude": 47.8095,
    "longitude": 13.055
  }
]